,City,Cloudiness,Country,Humidity,Date,Lat,Lng,Max Temp,Windspeed
0,phalaborwa,52.0,ZA,94.0,1576111102,-23.95,31.14,22.0,1.5
1,uyemskiy,75.0,RU,73.0,1576111209,64.47,40.85,-3.0,4.0
2,puerto ayora,20.0,EC,65.0,1576111209,-0.74,-90.35,25.0,7.7
3,vaini,2.0,IN,93.0,1576111209,15.34,74.49,16.0,1.26
4,tuktoyaktuk,5.0,CA,69.0,1576111210,69.44,-133.03,-25.0,7.7
5,carnarvon,0.0,ZA,41.0,1576111210,-30.97,22.13,18.1,5.9
6,riva,75.0,ES,87.0,1576111211,43.28,-3.56,12.78,7.2
7,cabo san lucas,40.0,MX,68.0,1576110976,22.89,-109.91,23.33,2.1
8,saint-philippe,75.0,CA,63.0,1576111211,45.36,-73.48,-3.0,9.8
9,te anau,89.0,NZ,93.0,1576111211,-45.41,167.72,12.71,2.41
10,norman wells,5.0,CA,75.0,1576111211,65.28,-126.83,-26.0,4.1
12,luderitz,0.0,NA,93.0,1576111211,-26.65,15.16,16.0,4.6
13,pipri,94.0,IN,73.0,1576111211,24.21,83.02,12.92,2.11
14,constitucion,5.0,MX,25.0,1576111211,23.99,-104.67,19.0,1.0
15,hermanus,14.0,ZA,81.0,1576111211,-34.42,19.24,19.44,3.58
16,atuona,76.0,PF,69.0,1576111211,-9.8,-139.03,26.4,5.82
17,mataura,100.0,NZ,52.0,1576111211,-46.19,168.86,22.58,1.6
18,punta arenas,75.0,CL,57.0,1576111211,-53.16,-70.91,11.0,10.8
19,sioux lookout,5.0,CA,69.0,1576111211,50.1,-91.92,-21.0,2.6
20,dubbo,40.0,AU,23.0,1576111211,-32.25,148.6,28.0,4.6
21,thompson,5.0,CA,74.0,1576111211,55.74,-97.86,-31.0,1.5
22,albany,75.0,US,87.0,1576111211,42.65,-73.75,0.0,2.6
23,hilo,75.0,US,69.0,1576111211,19.71,-155.08,27.0,5.7
24,sao joao da barra,100.0,BR,90.0,1576110930,-21.64,-41.05,24.18,7.87
25,san patricio,0.0,PY,48.0,1576111212,-26.98,-56.83,26.54,1.52
26,bredasdorp,42.0,ZA,82.0,1576111212,-34.53,20.04,19.44,5.7
27,avarua,82.0,CK,83.0,1576111212,-21.21,-159.78,27.0,7.2
28,bartica,90.0,GY,100.0,1576111212,6.41,-58.62,24.0,2.1
29,mapiri,100.0,BO,97.0,1576111212,-15.31,-68.22,20.58,0.38
30,makakilo city,1.0,US,66.0,1576111212,21.35,-158.09,29.0,4.1
31,selty,81.0,RU,85.0,1576111212,57.31,52.14,-6.58,4.11
32,bambous virieux,40.0,MU,88.0,1576111212,-20.34,57.76,26.67,0.5
33,khatanga,100.0,RU,88.0,1576111212,71.98,102.47,-22.62,3.92
34,portland,1.0,US,73.0,1576111188,43.66,-70.25,-2.78,2.1
35,busselton,16.0,AU,24.0,1576111212,-33.64,115.35,28.33,5.76
36,port moresby,100.0,PG,83.0,1576111213,-9.47,147.16,27.42,5.91
37,ushuaia,40.0,AR,65.0,1576111095,-54.81,-68.31,9.0,12.9
38,tornio,90.0,FI,96.0,1576111213,61.12,27.27,0.0,5.7
39,barrow,50.0,AR,70.0,1576111213,-38.31,-60.23,17.77,4.22
40,victoria,75.0,BN,83.0,1576111213,5.28,115.24,27.0,2.1
41,qaanaaq,0.0,GL,52.0,1576111213,77.48,-69.36,-20.78,3.03
42,lebu,75.0,ET,87.0,1576111213,8.96,38.73,11.0,1.5
43,kaitangata,100.0,NZ,81.0,1576111213,-46.28,169.85,15.56,4.47
45,tshane,0.0,BW,28.0,1576111213,-24.02,21.87,23.92,2.87
46,saint-pierre,75.0,FR,100.0,1576111214,48.95,4.24,5.0,5.7
47,junin,99.0,PE,58.0,1576111214,-16.45,-71.58,14.0,1.26
48,aswan,55.0,EG,34.0,1576111214,24.09,32.9,15.81,2.18
49,butaritari,6.0,KI,73.0,1576111214,3.07,172.79,29.45,6.01
50,nanchong,100.0,CN,94.0,1576111214,30.8,106.08,10.89,1.15
51,kapit,100.0,MY,99.0,1576111214,2.02,112.94,22.2,0.16
52,bluff,8.0,AU,39.0,1576111214,-23.58,149.07,29.97,2.01
53,sao filipe,93.0,CV,67.0,1576111215,14.9,-24.5,23.15,5.61
55,port alfred,10.0,ZA,97.0,1576111216,-33.59,26.89,16.11,1.79
57,mount gambier,90.0,AU,62.0,1576111217,-37.83,140.78,15.0,6.7
59,georgetown,40.0,GY,88.0,1576111218,6.8,-58.16,26.0,3.1
60,hami,29.0,CN,59.0,1576111219,42.84,93.51,-6.88,0.57
61,great yarmouth,82.0,GB,93.0,1576111221,52.61,1.73,2.22,4.1
62,bonthe,40.0,SL,81.0,1576111224,7.53,-12.5,26.67,2.15
64,arraial do cabo,99.0,BR,88.0,1576111225,-22.97,-42.02,23.78,10.07
65,athabasca,100.0,CA,95.0,1576111225,54.72,-113.29,-15.43,3.93
66,east london,68.0,ZA,89.0,1576111225,-33.02,27.91,19.57,7.51
67,tabas,74.0,IR,50.0,1576111225,33.6,56.92,9.0,2.1
68,rikitea,100.0,PF,82.0,1576111225,-23.12,-134.97,22.92,12.14
69,guerrero negro,76.0,MX,52.0,1576111225,27.97,-114.04,19.18,6.59
70,cape town,38.0,ZA,93.0,1576111225,-33.93,18.42,19.44,1.0
71,khromtau,92.0,KZ,90.0,1576111225,50.26,58.44,-1.96,5.53
72,new norfolk,40.0,AU,38.0,1576111225,-42.78,147.06,15.0,9.8
73,saskylakh,95.0,RU,95.0,1576111225,71.97,114.09,-30.54,3.03
74,half moon bay,90.0,US,100.0,1576111225,37.46,-122.43,17.0,4.1
75,atar,100.0,MR,16.0,1576111225,20.52,-13.05,19.16,5.71
76,longyearbyen,75.0,NO,66.0,1576111225,78.22,15.63,-12.0,9.8
78,adrar,0.0,DZ,34.0,1576111225,27.87,-0.29,9.0,4.1
79,jacareacanga,54.0,BR,76.0,1576111226,-6.22,-57.76,24.99,0.71
80,narsaq,100.0,GL,31.0,1576111226,60.91,-46.05,1.0,11.8
81,lavrentiya,100.0,RU,95.0,1576111226,65.58,-170.99,-1.35,5.32
82,naze,98.0,NG,88.0,1576111226,5.43,7.07,24.26,1.62
83,livingstone,40.0,ZW,53.0,1576111226,-17.85,25.86,21.76,1.62
84,luebo,97.0,CD,99.0,1576111226,-5.35,21.42,20.53,0.44
85,hobart,40.0,AU,38.0,1576111033,-42.88,147.33,15.0,9.8
86,sibate,75.0,CO,82.0,1576111226,4.48,-74.25,14.0,2.6
87,saquena,57.0,PE,83.0,1576111226,-4.67,-73.52,25.14,1.06
88,buraydah,4.0,SA,93.0,1576111226,26.33,43.97,12.0,3.65
89,sangar,95.0,RU,95.0,1576111226,63.92,127.47,-32.63,2.24
90,sabaudia,75.0,IT,87.0,1576111226,41.3,13.03,8.33,1.5
91,codrington,40.0,AU,58.0,1576111226,-28.95,153.24,29.0,2.6
92,nikolskoye,20.0,RU,86.0,1576111226,59.7,30.79,-1.67,4.0
93,presidencia roque saenz pena,0.0,AR,28.0,1576111226,-26.79,-60.44,28.52,2.96
94,tasiilaq,100.0,GL,85.0,1576111226,65.61,-37.64,-4.0,13.4
95,pevek,100.0,RU,94.0,1576111226,69.7,170.27,-11.48,6.05
96,necochea,83.0,AR,95.0,1576111226,-38.55,-58.74,18.89,1.34
97,buchanan,16.0,LR,91.0,1576111226,5.88,-10.05,24.62,0.94
98,provideniya,75.0,RU,98.0,1576111226,64.42,-173.23,0.0,4.0
99,chokurdakh,100.0,RU,96.0,1576111226,70.62,147.9,-29.95,1.71
100,shakawe,48.0,BW,53.0,1576111226,-18.36,21.84,22.97,1.42
101,ribeira grande,61.0,PT,64.0,1576111226,38.52,-28.7,12.17,1.87
102,qaqortoq,100.0,GL,31.0,1576111226,60.72,-46.03,1.0,11.8
103,fort nelson,90.0,CA,84.0,1576111226,58.81,-122.69,-18.0,2.6
106,valdosta,40.0,US,81.0,1576111227,30.83,-83.28,13.0,3.1
107,gizo,100.0,IL,72.0,1576111227,31.8,34.94,16.0,2.1
108,vilyuysk,98.0,RU,93.0,1576111227,63.75,121.63,-29.67,2.49
109,jinchang,0.0,CN,30.0,1576110997,38.52,102.19,-6.21,0.92
110,mbumi,0.0,TZ,97.0,1576111227,-7.91,39.21,23.28,0.58
111,salalah,40.0,OM,73.0,1576111227,17.01,54.1,24.0,2.1
112,port-gentil,78.0,GA,81.0,1576111227,-0.72,8.78,26.76,6.35
114,torbay,90.0,CA,100.0,1576111227,47.66,-52.73,0.56,6.7
115,kingaroy,51.0,AU,37.0,1576111227,-26.54,151.84,33.33,4.6
117,jiayuguan,10.0,CN,61.0,1576111227,39.77,98.29,-9.16,1.01
118,katsuura,75.0,JP,57.0,1576111227,33.93,134.5,12.78,4.6
119,rocha,35.0,UY,64.0,1576111227,-34.48,-54.34,21.74,1.43
120,parana,100.0,BR,93.0,1576111227,-7.52,-72.89,23.97,1.07
121,saint-francois,75.0,FR,80.0,1576111227,46.42,3.91,5.0,5.1
122,bosaso,55.0,SO,87.0,1576111067,11.28,49.18,26.07,3.7
125,douentza,60.0,ML,22.0,1576111228,15.01,-2.95,16.76,1.72
126,uppsala,100.0,SE,100.0,1576111201,59.86,17.64,4.44,3.6
127,port elizabeth,1.0,US,63.0,1576111228,39.31,-74.98,2.78,3.1
128,beringovskiy,83.0,RU,85.0,1576111228,63.05,179.32,-1.69,4.78
129,kassala,40.0,SD,85.0,1576111228,15.45,36.38,21.87,2.56
130,airai,60.0,TL,47.0,1576111228,-8.93,125.41,26.63,1.69
132,zirc,75.0,HU,84.0,1576111228,47.26,17.87,0.0,3.32
133,kinablangan,99.0,PH,74.0,1576111228,7.69,126.55,25.77,2.66
134,hun,100.0,BE,93.0,1576111228,50.34,4.87,5.56,4.6
135,borogontsy,92.0,RU,97.0,1576111228,62.67,131.17,-36.41,1.53
136,leh,100.0,IN,85.0,1576111228,34.16,77.58,-13.63,0.79
137,nanortalik,100.0,GL,66.0,1576111229,60.14,-45.24,-0.06,4.73
138,los llanos de aridane,20.0,ES,72.0,1576111229,28.66,-17.92,18.0,5.7
139,san cristobal,28.0,HN,85.0,1576111229,14.68,-86.92,19.42,2.45
140,huilong,100.0,CN,93.0,1576111229,31.15,106.5,11.16,0.42
141,ayan,0.0,IR,55.0,1576111229,38.23,44.7,-6.44,2.78
142,castro,20.0,CL,71.0,1576111229,-42.48,-73.76,11.0,2.1
145,cherskiy,100.0,RU,97.0,1576111229,68.75,161.3,-20.21,7.05
146,broome,65.0,GB,92.0,1576111229,52.47,1.45,2.22,4.1
147,muzhi,99.0,RU,82.0,1576111229,65.4,64.7,-9.15,5.4
148,mar del plata,57.0,AR,61.0,1576111229,-46.43,-67.52,10.27,13.65
149,nome,1.0,US,54.0,1576111229,30.04,-94.42,12.0,2.6
150,zhigansk,100.0,RU,95.0,1576111229,66.77,123.37,-34.12,3.81
151,kapaa,1.0,US,69.0,1576110934,22.08,-159.32,28.0,2.6
152,kodiak,1.0,US,55.0,1576111229,39.95,-94.76,3.33,3.6
153,lake cowichan,90.0,CA,93.0,1576111229,48.82,-124.05,8.0,3.1
155,jamestown,100.0,AU,39.0,1576111229,-33.21,138.6,19.65,3.74
157,hasaki,0.0,JP,87.0,1576111145,35.73,140.83,13.0,3.1
159,boysun,100.0,UZ,60.0,1576111229,38.2,67.2,7.0,1.8
160,yellowknife,20.0,CA,66.0,1576111043,62.45,-114.38,-29.44,1.5
161,reading,1.0,US,72.0,1576110961,40.34,-75.93,0.56,3.1
162,pangnirtung,98.0,CA,64.0,1576111229,66.15,-65.72,-17.06,3.56
163,sarapul,100.0,RU,85.0,1576111230,56.48,53.82,-5.56,1.34
164,karratha,8.0,AU,54.0,1576111230,-20.74,116.85,29.83,6.55
165,umm lajj,60.0,SA,42.0,1576111230,25.02,37.27,19.02,0.96
166,matadi,93.0,CD,88.0,1576111231,-5.83,13.46,22.49,1.06
167,hualmay,94.0,PE,84.0,1576111232,-11.1,-77.61,18.43,2.61
168,udachnyy,90.0,RU,76.0,1576111233,66.42,112.4,-24.0,1.0
169,omaruru,47.0,NA,35.0,1576111234,-21.42,15.95,19.25,3.84
171,esperance,14.0,AU,59.0,1576111235,-33.86,121.89,19.0,5.7
172,taikang,0.0,CN,83.0,1576111235,46.86,124.44,-15.92,3.38
173,nyurba,98.0,RU,98.0,1576111235,63.29,118.35,-32.03,1.45
174,aklavik,5.0,CA,75.0,1576111235,68.22,-135.01,-25.0,2.6
175,chingirlau,87.0,KZ,93.0,1576111235,51.09,54.08,-6.21,3.35
176,puerto madero,90.0,AR,47.0,1576111235,-34.61,-58.36,26.0,5.1
177,chuy,34.0,UY,46.0,1576111235,-33.69,-53.46,24.22,4.22
178,bethel,90.0,US,79.0,1576111235,60.79,-161.76,-2.0,6.7
179,ostrovnoy,100.0,RU,85.0,1576111236,68.05,39.51,-3.64,10.0
180,porto velho,40.0,BR,88.0,1576111236,-8.75,-63.87,25.0,0.5
181,lucea,20.0,JM,74.0,1576111236,18.44,-78.17,28.0,3.1
182,chopinzinho,6.0,BR,91.0,1576111032,-25.86,-52.53,19.5,1.77
183,tiksi,41.0,RU,88.0,1576111236,71.64,128.87,-32.95,2.32
184,dingle,9.0,PH,88.0,1576111236,11.0,122.67,25.12,5.13
185,hamilton,20.0,CA,61.0,1576111236,43.26,-79.87,-5.0,4.1
186,havelock,1.0,US,75.0,1576111177,34.88,-76.9,6.11,3.6
187,leo,100.0,BF,11.0,1576111236,11.1,-2.1,23.27,3.24
188,suhum,20.0,GH,83.0,1576111236,6.04,-0.45,28.0,2.6
189,davidson,100.0,CA,85.0,1576111236,51.26,-105.98,-16.11,3.13
190,road town,40.0,VG,74.0,1576110957,18.42,-64.62,27.0,10.3
191,cholula,100.0,MX,92.0,1576111236,20.74,-98.5,8.81,1.92
192,mecca,14.0,SA,67.0,1576111224,21.43,39.83,23.64,1.03
193,junction city,1.0,US,52.0,1576111236,39.03,-96.83,6.67,5.35
194,bereda,20.0,ES,87.0,1576111236,43.27,-7.54,12.22,4.6
195,vao,97.0,EE,66.0,1576111236,59.1,26.19,-2.31,4.5
196,sinnamary,100.0,GF,80.0,1576111236,5.38,-52.96,26.95,8.7
198,severo-kurilsk,78.0,RU,86.0,1576111236,50.68,156.12,-4.41,1.77
199,olinda,90.0,AU,63.0,1576111236,-37.84,145.39,17.22,6.7
200,tymovskoye,100.0,RU,93.0,1576111236,50.85,142.66,-13.7,2.56
202,agirish,30.0,RU,82.0,1576111236,61.92,63.02,-7.19,6.25
203,oktyabrskiy,90.0,RU,92.0,1576111237,55.61,37.97,0.0,2.0
204,baie-comeau,90.0,CA,78.0,1576111237,49.22,-68.15,-10.0,3.1
205,lorengau,100.0,PG,70.0,1576111237,-2.02,147.27,29.28,4.22
206,mahebourg,40.0,MU,88.0,1576111237,-20.41,57.7,26.67,0.5
207,upernavik,0.0,GL,57.0,1576111237,72.79,-56.15,-17.39,2.13
209,westlock,90.0,CA,85.0,1576111237,54.15,-113.85,-12.0,2.6
210,aksu,90.0,KZ,92.0,1576111237,52.04,76.93,-12.0,3.36
211,tofield,90.0,CA,78.0,1576111237,53.37,-112.67,-12.78,4.1
212,san policarpo,39.0,PH,81.0,1576111237,12.18,125.51,27.67,5.4
213,ancud,20.0,CL,71.0,1576111237,-41.87,-73.83,11.0,2.1
214,mandurah,0.0,AU,34.0,1576111237,-32.55,115.7,28.33,6.7
215,gazanjyk,96.0,TM,80.0,1576111237,39.24,55.52,5.64,2.25
216,touros,40.0,BR,74.0,1576111238,-5.2,-35.46,27.0,4.1
217,acapulco,20.0,MX,74.0,1576111238,16.86,-99.88,28.0,2.6
218,chumikan,53.0,RU,87.0,1576111238,54.72,135.31,-21.57,2.43
220,talnakh,75.0,RU,85.0,1576111238,69.49,88.39,-6.0,7.0
221,lagoa,42.0,PT,62.0,1576111238,37.14,-8.45,11.0,6.2
222,prince rupert,90.0,CA,66.0,1576111032,54.32,-130.32,9.0,6.2
224,marsh harbour,5.0,BS,82.0,1576111238,26.54,-77.06,24.58,5.67
225,dikson,3.0,RU,89.0,1576111238,73.51,80.55,-24.21,4.4
226,blytheville,1.0,US,60.0,1576111237,35.93,-89.92,6.0,2.49
227,maxixe,89.0,MZ,91.0,1576111238,-23.86,35.35,23.05,2.64
228,kruisfontein,37.0,ZA,95.0,1576111238,-34.0,24.73,15.15,3.65
229,whitehorse,75.0,CA,92.0,1576111238,60.72,-135.06,-6.0,1.0
230,olga,1.0,US,41.0,1576111238,34.11,-118.17,19.44,1.5
231,umarkhed,0.0,IN,78.0,1576111238,19.6,77.69,17.6,2.97
232,leningradskiy,100.0,RU,94.0,1576111238,69.38,178.42,-4.9,7.04
233,rivadavia,0.0,AR,22.0,1576111239,-31.53,-68.59,31.86,8.81
235,batemans bay,34.0,AU,62.0,1576111239,-35.71,150.18,21.67,2.24
236,chadiza,90.0,ZM,94.0,1576111239,-14.06,32.43,19.84,0.26
237,belyy yar,13.0,RU,84.0,1576111239,53.6,91.39,-13.0,1.0
238,tilichiki,90.0,RU,87.0,1576111239,60.47,166.1,-17.65,1.77
239,matara,100.0,BI,97.0,1576111239,-3.48,29.48,14.11,0.34
240,tutoia,94.0,BR,85.0,1576111239,-2.76,-42.27,25.07,1.86
241,campbell river,90.0,CA,93.0,1576111239,50.02,-125.24,8.0,7.7
242,port lincoln,30.0,AU,69.0,1576111239,-34.72,135.86,17.38,6.35
243,garissa,78.0,KE,79.0,1576111239,-0.46,39.64,25.68,1.91
244,baghdad,88.0,IQ,100.0,1576111239,33.3,44.38,9.0,1.5
245,clyde river,75.0,CA,84.0,1576111239,70.47,-68.59,-17.0,9.3
246,honningsvag,100.0,NO,79.0,1576111239,70.98,25.97,1.66,5.34
247,raahe,90.0,FI,86.0,1576111239,64.68,24.47,3.0,4.1
248,lodja,94.0,CD,99.0,1576111239,-3.52,23.6,19.33,0.64
249,belmonte,95.0,PT,84.0,1576111239,40.36,-7.35,6.67,2.98
250,pali,100.0,IN,47.0,1576111239,25.77,73.33,19.22,4.43
251,cidreira,0.0,BR,90.0,1576111239,-30.17,-50.22,22.97,10.0
252,hithadhoo,98.0,MV,72.0,1576111239,-0.6,73.08,27.71,1.97
253,harrison,1.0,US,73.0,1576111240,39.26,-84.82,-0.56,2.1
254,souillac,47.0,FR,93.0,1576111243,45.6,-0.6,5.0,2.6
255,ndioum,100.0,SN,15.0,1576111243,16.51,-14.65,24.7,5.39
256,saint george,75.0,GR,93.0,1576111243,39.45,22.34,8.0,1.39
257,tuy hoa,81.0,VN,79.0,1576110953,13.08,109.3,23.74,8.93
258,challans,69.0,FR,80.0,1576111243,46.85,-1.88,6.67,2.6
259,zyryanka,100.0,RU,98.0,1576111243,65.73,150.89,-26.46,2.68
260,dudinka,75.0,RU,85.0,1576111244,69.41,86.18,-6.0,7.0
261,ondangwa,18.0,NA,52.0,1576111244,-17.91,15.98,21.0,1.5
262,shimoda,20.0,JP,59.0,1576111244,34.7,138.93,16.67,8.2
263,vozhega,99.0,RU,65.0,1576111244,60.47,40.21,-4.06,4.28
264,farafangana,100.0,MG,82.0,1576111244,-22.82,47.83,26.23,4.0
266,kirakira,100.0,SB,76.0,1576111244,-10.46,161.92,27.61,1.29
267,sisimiut,66.0,GL,68.0,1576111244,66.94,-53.67,-17.58,3.32
268,jijiga,57.0,ET,78.0,1576111244,9.35,42.8,16.32,0.19
269,bambanglipuro,100.0,ID,79.0,1576111244,-7.95,110.28,26.7,1.36
270,eyl,2.0,SO,83.0,1576111244,7.98,49.82,26.4,5.41
271,ouargaye,98.0,BF,12.0,1576111244,11.5,0.06,22.86,3.98
272,urucara,100.0,BR,66.0,1576111245,-2.54,-57.76,27.06,0.61
273,alyangula,38.0,AU,66.0,1576111245,-13.85,136.42,32.0,3.1
274,faanui,20.0,PF,71.0,1576111245,-16.48,-151.75,27.0,2.09
275,ewo,0.0,CG,83.0,1576111245,-0.88,14.81,21.46,0.67
276,deputatskiy,53.0,RU,94.0,1576111245,69.3,139.9,-32.17,1.26
277,auburn,1.0,US,73.0,1576111245,44.1,-70.23,-3.0,3.6
278,gorom-gorom,99.0,BF,12.0,1576111245,14.45,-0.24,23.17,3.49
279,fortuna,90.0,US,76.0,1576111245,40.6,-124.16,14.0,6.7
280,bandarbeyla,38.0,SO,84.0,1576111245,9.49,50.81,26.73,4.62
281,fort saint james,100.0,CA,97.0,1576111245,54.43,-124.25,-5.73,1.48
282,plouzane,54.0,FR,81.0,1576111245,48.38,-4.62,8.33,3.6
284,komsomolskiy,96.0,RU,95.0,1576111245,67.55,63.78,-13.48,2.74
285,dwarka,75.0,IN,82.0,1576111245,28.58,77.04,20.0,3.28
286,taldan,46.0,RU,95.0,1576111245,53.69,124.82,-24.49,1.18
287,la ronge,5.0,CA,75.0,1576111245,55.1,-105.3,-29.0,0.91
289,harper,1.0,US,49.0,1576111245,30.3,-99.24,9.44,4.03
290,huanren,33.0,CN,94.0,1576111245,41.26,125.37,-13.37,0.98
291,flinders,75.0,AU,56.0,1576111245,-34.58,150.85,22.22,7.2
292,ucluelet,90.0,CA,93.0,1576111246,48.94,-125.55,8.33,8.2
293,alta floresta,91.0,BR,94.0,1576111246,-9.87,-56.08,22.69,1.65
294,margate,40.0,AU,38.0,1576111246,-43.03,147.26,15.0,9.8
296,skole,98.0,UA,85.0,1576111246,49.04,23.51,0.56,1.72
297,boa vista,35.0,BR,62.0,1576111246,2.82,-60.67,30.0,1.5
298,goderich,94.0,CA,75.0,1576111246,43.74,-81.71,-4.44,8.05
299,gornopravdinsk,100.0,RU,98.0,1576111246,60.06,69.92,0.15,2.62
300,westport,1.0,US,69.0,1576111246,41.14,-73.36,3.0,5.7
301,pacific grove,90.0,US,63.0,1576111246,36.62,-121.92,17.0,1.5
302,barzas,90.0,RU,92.0,1576111246,55.72,86.32,-8.0,4.0
303,woodstock,5.0,CA,57.0,1576111233,43.13,-80.75,-6.67,5.1
304,ambovombe,100.0,MG,86.0,1576111246,-25.18,46.09,23.64,2.11
305,rawson,100.0,AR,61.0,1576111246,-43.3,-65.11,13.73,14.17
307,maturin,98.0,VE,93.0,1576111162,9.75,-63.18,23.19,3.56
308,millinocket,1.0,US,78.0,1576111244,45.66,-68.71,-6.67,1.67
310,vila franca do campo,75.0,PT,58.0,1576111246,37.72,-25.43,14.0,2.1
311,orbetello,100.0,IT,80.0,1576111246,42.44,11.21,4.0,2.6
312,kahului,40.0,US,55.0,1576111246,20.89,-156.47,30.0,5.7
313,khuzdar,99.0,PK,69.0,1576111246,27.8,66.62,9.92,2.21
314,north bend,90.0,US,93.0,1576111246,43.41,-124.22,10.0,1.5
315,port keats,15.0,AU,59.0,1576111246,-14.25,129.55,32.73,4.3
316,sambava,19.0,MG,93.0,1576111246,-14.27,50.17,22.46,0.77
319,saint anthony,90.0,US,97.0,1576111247,43.97,-111.68,1.0,3.6
321,huarmey,68.0,PE,81.0,1576111247,-10.07,-78.15,18.67,1.79
322,arzgir,4.0,RU,88.0,1576111247,45.37,44.21,0.76,1.9
323,puerto escondido,5.0,MX,74.0,1576111247,15.86,-97.07,28.0,1.5
324,wewak,100.0,PG,74.0,1576111247,-3.55,143.63,27.89,0.93
326,nhulunbuy,20.0,AU,55.0,1576111247,-12.18,136.78,32.0,4.1
327,cedar city,1.0,US,69.0,1576111247,37.68,-113.06,4.0,2.1
328,emerald,0.0,AU,43.0,1576111247,-23.53,148.16,32.22,3.1
329,kavieng,78.0,PG,67.0,1576111247,-2.57,150.8,29.65,2.95
330,itaituba,56.0,BR,93.0,1576111247,-4.26,-55.99,23.88,1.02
331,sovetskaya,4.0,RU,9.0,1576111247,44.78,41.17,-3.33,0.89
332,hope,1.0,US,56.0,1576111247,33.67,-93.59,7.0,1.5
333,hofn,36.0,IS,60.0,1576111247,64.25,-15.21,1.59,14.5
334,mount isa,0.0,AU,14.0,1576111247,-20.73,139.49,38.0,5.7
335,ananas,6.0,HT,88.0,1576111247,19.25,-71.96,21.13,3.26
336,baruun-urt,0.0,MN,79.0,1576111247,46.68,113.28,-14.2,3.53
337,magadan,0.0,RU,74.0,1576111247,59.56,150.8,-19.27,3.9
339,pocone,98.0,BR,70.0,1576111247,-16.26,-56.62,27.31,2.03
340,kasongo-lunda,100.0,CD,90.0,1576111247,-6.48,16.82,20.21,0.56
341,araxa,100.0,BR,94.0,1576111240,-19.59,-46.94,20.0,2.1
342,upington,0.0,ZA,27.0,1576111247,-28.46,21.24,23.0,3.6
343,yar-sale,100.0,RU,92.0,1576111247,66.83,70.83,-11.55,3.55
345,caravelas,8.0,BR,92.0,1576111247,-17.73,-39.27,22.54,3.14
346,peabiru,81.0,BR,93.0,1576111247,-23.91,-52.35,20.56,1.5
348,nelson bay,75.0,AU,60.0,1576111248,-32.72,152.14,22.22,4.6
349,udayagiri,26.0,IN,88.0,1576111248,12.32,76.68,16.65,2.64
350,villa guerrero,71.0,MX,40.0,1576111248,21.98,-103.59,17.67,1.95
351,kudahuvadhoo,100.0,MV,87.0,1576111248,2.67,72.89,25.53,5.27
352,trat,34.0,TH,88.0,1576111248,12.25,102.51,25.56,1.0
353,vardo,1.0,US,77.0,1576111001,39.62,-77.74,1.11,8.2
354,ariquemes,99.0,BR,96.0,1576111248,-9.91,-63.03,23.46,1.1
355,manokwari,89.0,ID,81.0,1576111248,-0.87,134.08,25.62,1.71
356,babu,0.0,CN,76.0,1576111248,23.23,104.89,6.75,1.99
357,zemio,41.0,CF,86.0,1576111248,5.02,25.13,20.85,1.45
358,faya,89.0,SA,82.0,1576111248,18.39,42.45,15.0,1.03
359,bara,7.0,NG,16.0,1576111248,10.41,10.6,19.38,2.91
360,lima,90.0,PE,88.0,1576110508,-12.06,-77.04,20.0,5.1
361,saquarema,75.0,BR,94.0,1576111248,-22.93,-42.51,23.0,0.5
362,cockburn town,0.0,TC,79.0,1576111248,21.46,-71.14,26.32,8.62
363,severomuysk,100.0,RU,95.0,1576111248,56.17,113.57,-18.31,1.69
364,iqaluit,75.0,CA,77.0,1576111248,63.75,-68.52,-17.0,5.1
365,tecolutla,19.0,MX,59.0,1576111248,17.31,-98.74,18.8,0.75
366,ilulissat,5.0,GL,54.0,1576111248,69.22,-51.1,-17.0,1.5
367,kotido,1.0,UG,75.0,1576111248,3.01,34.12,20.91,2.96
368,santiago del estero,0.0,AR,33.0,1576111022,-27.8,-64.26,30.97,3.44
369,skowhegan,1.0,US,57.0,1576111248,44.77,-69.72,-3.89,1.36
372,rio gallegos,40.0,AR,87.0,1576111084,-51.62,-69.22,12.0,7.7
373,nantucket,40.0,US,80.0,1576110967,41.28,-70.1,-0.56,4.1
374,ketchikan,90.0,US,70.0,1576111249,55.34,-131.65,8.0,9.3
375,geraldton,20.0,CA,69.0,1576111249,49.72,-86.95,-25.0,2.6
376,boo,8.0,NG,20.0,1576111249,7.44,8.9,25.52,2.04
377,tabou,99.0,CI,90.0,1576111249,4.42,-7.36,24.42,1.23
378,xai-xai,8.0,MZ,98.0,1576111249,-25.04,33.64,20.05,1.93
379,puerto colombia,100.0,CO,78.0,1576111249,10.99,-74.96,27.0,7.2
380,ornskoldsvik,31.0,SE,93.0,1576111051,63.29,18.72,2.0,3.1
381,coahuayana,29.0,MX,48.0,1576111249,18.62,-100.35,25.12,0.83
382,alice springs,0.0,AU,11.0,1576111249,-23.7,133.88,35.0,6.7
383,kolokani,75.0,ML,20.0,1576111249,13.58,-8.03,19.46,4.24
384,yulara,84.0,AU,12.0,1576111249,-25.24,130.99,31.0,10.8
385,nouadhibou,100.0,MR,49.0,1576111249,20.93,-17.03,20.0,6.2
386,iquitos,40.0,PE,88.0,1576111249,-3.75,-73.25,26.0,1.5
387,alofi,75.0,NU,79.0,1576111225,-19.06,-169.92,29.0,3.1
388,raudeberg,98.0,NO,65.0,1576111249,61.99,5.14,8.0,20.6
389,coracao de jesus,16.0,BR,47.0,1576111249,-16.69,-44.37,27.0,3.6
390,dongsheng,16.0,CN,57.0,1576111249,29.72,112.52,8.84,2.24
391,tabuk,95.0,PH,84.0,1576111249,17.41,121.44,22.6,3.39
393,kasulu,86.0,TZ,96.0,1576111249,-4.57,30.11,15.94,1.56
394,sibiti,96.0,CG,95.0,1576111249,-3.69,13.35,20.34,0.42
395,broomall,1.0,US,61.0,1576111252,39.98,-75.36,1.11,3.1
396,bitung,40.0,ID,83.0,1576111253,1.44,125.19,27.0,2.6
397,vila velha,99.0,BR,74.0,1576111253,-3.71,-38.6,27.22,3.1
399,henties bay,12.0,NA,89.0,1576111253,-22.12,14.28,17.22,0.86
400,college,75.0,US,79.0,1576111057,64.86,-147.8,-3.0,2.6
401,progreso,75.0,UY,54.0,1576111254,-34.68,-56.22,29.0,6.7
402,ahipara,29.0,NZ,81.0,1576111078,-35.17,173.16,17.41,6.97
403,evensk,100.0,RU,92.0,1576111254,61.92,159.24,-19.79,4.16
404,quatre cocos,40.0,MU,88.0,1576111254,-20.21,57.76,26.67,0.5
405,sile,1.0,US,64.0,1576111254,35.56,-106.37,6.67,4.6
406,riyadh,66.0,SA,82.0,1576111254,24.63,46.72,13.0,2.95
407,heinola,90.0,FI,96.0,1576111254,61.2,26.03,0.0,5.7
408,quelimane,100.0,MZ,90.0,1576111254,-17.88,36.89,24.22,1.35
409,gazojak,85.0,TM,80.0,1576111254,41.19,61.4,4.85,3.25
410,grindavik,75.0,IS,74.0,1576111254,63.84,-22.43,-1.0,9.3
411,brae,100.0,GB,86.0,1576111254,60.4,-1.35,5.0,8.7
412,lubao,50.0,CD,99.0,1576111254,-5.39,25.75,18.22,0.36
413,kurdzhinovo,5.0,RU,62.0,1576111254,43.99,40.96,-0.01,1.71
414,saint-augustin,90.0,CA,92.0,1576111254,45.63,-73.98,-3.0,8.2
415,vestmannaeyjar,41.0,IS,68.0,1576111254,63.44,-20.27,-0.44,13.5
416,tahoua,42.0,NE,17.0,1576111254,14.89,5.26,22.0,3.1
417,tecate,17.0,US,48.0,1576111254,32.57,-116.63,18.0,4.6
418,mandalgovi,0.0,MN,62.0,1576111254,45.76,106.27,-9.27,6.12
419,erseke,99.0,AL,96.0,1576111254,40.34,20.68,0.46,2.85
420,mahon,75.0,IE,100.0,1576111254,51.89,-8.4,7.22,5.1
421,barcelos,100.0,BR,92.0,1576111254,-0.97,-62.93,24.57,0.49
422,yizheng,0.0,CN,93.0,1576111254,24.67,103.43,2.16,0.53
423,kokopo,99.0,PG,75.0,1576111254,-4.34,152.27,28.92,4.94
424,beloha,100.0,MG,89.0,1576111254,-25.17,45.06,23.95,3.07
425,san carlos,56.0,NI,1.0,1576111254,11.12,-84.78,23.89,4.47
426,pemberton,9.0,AU,52.0,1576111255,-34.44,116.03,24.44,2.68
427,lukovetskiy,75.0,RU,73.0,1576111255,64.29,41.92,-3.0,4.0
428,lata,100.0,IN,96.0,1576111255,30.78,78.62,-7.84,1.5
429,ravar,20.0,IR,45.0,1576111255,31.27,56.81,7.59,4.09
430,lajeado,23.0,BR,70.0,1576111255,-29.47,-51.96,26.11,0.24
431,ishigaki,20.0,JP,72.0,1576111255,24.34,124.16,20.0,6.7
432,san vicente,75.0,EC,78.0,1576111137,-0.59,-80.41,25.0,5.7
433,sharya,2.0,RU,78.0,1576111255,58.37,45.52,-5.24,1.69
434,porto novo,75.0,BR,94.0,1576111255,-23.68,-45.44,20.0,2.23
435,sawakin,98.0,SD,78.0,1576111255,19.1,37.33,26.67,3.98
436,chicama,90.0,PE,88.0,1576111255,-7.84,-79.15,20.0,3.6
438,hare bay,90.0,CA,58.0,1576111255,48.86,-53.99,-4.0,5.7
439,namibe,32.0,AO,79.0,1576111255,-15.19,12.15,22.69,5.7
440,axim,75.0,GH,91.0,1576111255,4.87,-2.24,24.88,1.32
441,comodoro rivadavia,75.0,AR,54.0,1576111255,-45.87,-67.48,12.0,8.7
442,madera,90.0,US,100.0,1576111255,36.96,-120.06,13.89,1.01
443,ponta do sol,100.0,BR,97.0,1576111255,-20.63,-46.0,19.91,0.87
444,ust-ishim,88.0,RU,89.0,1576111255,57.69,71.17,-6.51,4.2
445,manama,20.0,AE,100.0,1576111255,25.33,56.02,22.0,2.1
446,muhos,90.0,FI,86.0,1576111255,64.81,26.0,3.0,4.1
447,bontang,82.0,ID,87.0,1576111255,0.12,117.47,25.69,2.9
448,ileza,99.0,RU,74.0,1576111255,61.05,43.9,-5.31,2.88
450,salas,90.0,PE,29.0,1576111256,-6.27,-79.61,19.0,6.7
451,vysokogornyy,100.0,RU,95.0,1576111256,50.1,139.13,-18.28,1.36
452,makushino,49.0,RU,91.0,1576111256,55.21,67.25,-6.93,5.57
453,havre-saint-pierre,1.0,CA,60.0,1576111256,50.23,-63.6,-13.0,2.6
455,sabang,98.0,PH,80.0,1576111256,13.8,121.11,24.58,4.5
456,conceicao do araguaia,24.0,BR,83.0,1576111256,-8.26,-49.26,24.31,1.43
457,dvorichna,100.0,UA,94.0,1576111256,49.85,37.68,2.55,1.96
458,sorong,71.0,ID,84.0,1576111256,-0.86,131.25,27.42,1.19
459,san rafael del sur,40.0,NI,69.0,1576111256,11.85,-86.44,28.0,4.1
460,melendugno,75.0,IT,100.0,1576111256,40.27,18.34,13.0,4.6
461,brigantine,1.0,US,80.0,1576111256,39.41,-74.36,3.0,3.1
462,kabinda,97.0,CD,98.0,1576111256,-6.14,24.49,17.46,0.64
463,evanston,1.0,US,53.0,1576111256,42.04,-87.69,-6.0,2.06
464,rio grande,33.0,BR,83.0,1576111105,-32.03,-52.1,24.44,0.89
465,tautira,75.0,PF,74.0,1576111256,-17.73,-149.15,28.0,2.1
466,tafresh,17.0,IR,71.0,1576111256,34.69,50.01,-0.68,3.97
467,angoche,97.0,MZ,79.0,1576111256,-16.23,39.91,26.82,2.49
469,viedma,52.0,AR,26.0,1576111256,-40.81,-62.99,21.56,10.01
470,murmashi,75.0,RU,92.0,1576111256,68.82,32.82,-3.0,1.0
471,ternate,75.0,PH,69.0,1576111256,14.29,120.72,28.0,1.0
472,shelburne,90.0,CA,67.0,1576111256,44.08,-80.2,-7.0,4.6
473,cabangahan,20.0,PH,74.0,1576111256,10.4,123.92,28.0,3.6
474,warrington,2.0,GB,75.0,1576111256,53.39,-2.59,3.33,2.6
475,batagay,0.0,RU,93.0,1576111256,67.65,134.64,-37.59,0.74
476,kachiry,0.0,KZ,86.0,1576111257,53.07,76.1,-9.19,3.88
477,zalantun,0.0,CN,80.0,1576111257,48.0,122.72,-17.54,1.7
478,arcachon,75.0,FR,62.0,1576111257,44.65,-1.18,11.0,6.2
479,bud,38.0,NO,42.0,1576111257,62.91,6.91,8.0,5.1
480,nizwa,41.0,OM,61.0,1576111257,22.93,57.53,17.08,1.04
482,daru,100.0,PG,71.0,1576111257,-9.07,143.21,27.28,3.19
483,dolores hidalgo,75.0,MX,45.0,1576111257,21.16,-100.93,19.0,3.6
484,samarina,90.0,RU,86.0,1576111257,57.89,27.81,0.0,4.0
485,awbari,0.0,LY,40.0,1576111257,26.59,12.77,8.94,3.97
487,tupik,65.0,RU,95.0,1576111257,54.43,119.94,-27.02,1.3
488,stenlille,100.0,DK,100.0,1576111257,55.79,12.21,5.0,2.6
489,taoudenni,4.0,ML,20.0,1576111257,22.68,-3.98,14.8,4.99
490,skelleftea,0.0,SE,93.0,1576111257,64.75,20.95,2.0,3.1
491,nova vicosa,0.0,BR,82.0,1576111257,-17.89,-39.37,24.88,5.54
492,bellefontaine,90.0,US,100.0,1576111257,40.36,-83.76,-3.0,1.5
493,mitchell,1.0,US,78.0,1576111056,43.71,-98.03,-11.0,9.3
494,nishihara,20.0,JP,81.0,1576111257,35.74,139.53,16.67,1.0
495,nchelenge,100.0,ZM,83.0,1576111257,-9.35,28.74,21.68,3.72
496,batouri,56.0,CM,51.0,1576111257,4.44,14.36,23.19,0.23
497,dunedin,78.0,NZ,84.0,1576111257,-45.87,170.5,14.44,9.83
498,gat,88.0,SN,68.0,1576111258,14.69,-16.54,22.0,4.1
499,coihaique,40.0,CL,66.0,1576111258,-45.58,-72.07,9.0,2.6
500,chimbote,91.0,PE,82.0,1576111258,-9.08,-78.59,19.28,2.95
501,magura,3.0,NG,13.0,1576111258,12.46,6.59,19.39,3.99
502,carman,40.0,CA,59.0,1576111258,49.51,-98.0,-17.78,0.88
503,mbarara,0.0,UG,95.0,1576111258,-0.61,30.65,14.7,1.66
504,kendari,79.0,ID,63.0,1576111258,-3.99,122.52,29.82,1.15
505,shellbrook,75.0,CA,75.0,1576111258,53.22,-106.39,-25.0,1.95
506,bafoulabe,100.0,ML,15.0,1576111258,13.81,-10.83,24.15,4.92
507,roza,90.0,RU,100.0,1576111258,54.91,61.45,-1.0,5.0
508,pueblo,1.0,US,47.0,1576111181,38.25,-104.61,5.0,3.6
509,kontagora,10.0,NG,14.0,1576111258,10.4,5.47,21.37,2.36
510,sao borja,1.0,BR,39.0,1576111258,-28.66,-56.0,26.99,3.1
511,marystown,100.0,CA,100.0,1576110999,47.17,-55.16,1.67,6.64
512,yangcun,49.0,CN,64.0,1576111258,29.98,118.17,6.11,1.09
513,buala,100.0,SB,66.0,1576111258,-8.15,159.59,30.04,1.69
515,bilma,100.0,NE,35.0,1576111258,18.69,12.92,16.84,8.89
516,mehamn,100.0,NO,88.0,1576111258,71.03,27.85,-2.9,5.24
517,baikunthpur,74.0,IN,64.0,1576111258,23.26,82.56,12.75,1.33
518,dickinson,90.0,US,85.0,1576111258,46.88,-102.79,-8.33,5.7
519,molina,51.0,CL,29.0,1576111258,-35.11,-71.28,25.0,4.1
521,southbridge,1.0,US,79.0,1576111258,42.08,-72.03,-2.22,3.6
522,sao miguel do araguaia,8.0,BR,69.0,1576111258,-13.28,-50.16,25.96,1.55
523,atasu,53.0,KZ,81.0,1576111259,48.68,71.64,-3.13,2.12
524,novo oriente,100.0,BR,61.0,1576111259,-5.54,-40.77,24.91,0.92
525,pryazha,100.0,RU,86.0,1576111259,61.69,33.62,-2.0,7.0
526,oshnaviyeh,0.0,IR,79.0,1576111259,37.04,45.1,-3.0,3.1
527,tshikapa,100.0,CD,96.0,1576111259,-6.42,20.79,20.66,0.66
528,lincoln,18.0,GB,85.0,1576111259,53.23,-0.54,2.22,4.6
529,elko,90.0,US,56.0,1576111232,40.83,-115.76,6.0,2.1
530,fare,53.0,PF,75.0,1576111259,-16.7,-151.02,27.11,2.79
531,kawalu,100.0,ID,86.0,1576111259,-7.38,108.21,22.82,1.14
532,porirua,3.0,NZ,72.0,1576111259,-41.14,174.84,20.56,9.8
533,kitimat,90.0,CA,86.0,1576111259,54.02,-128.69,-0.56,10.3
535,ambilobe,51.0,MG,87.0,1576111259,-13.19,49.05,25.57,0.87
536,pisco,75.0,PE,30.0,1576111260,-13.71,-76.2,22.0,7.7
537,todos santos,40.0,MX,56.0,1576111260,23.45,-110.23,23.33,4.6
540,solnechnyy,1.0,RU,84.0,1576111260,50.72,136.64,-19.91,1.21
541,forbes,9.0,AU,23.0,1576111260,-33.38,148.01,27.14,4.56
542,bakel,100.0,SN,15.0,1576111260,14.9,-12.46,25.59,5.79
543,ust-ilimsk,100.0,RU,91.0,1576111260,57.96,102.73,-7.17,4.86
544,carai,17.0,BR,89.0,1576111260,-17.19,-41.69,18.59,1.3
545,mosquera,75.0,CO,82.0,1576111260,4.71,-74.23,14.0,2.6
546,alghero,40.0,IT,87.0,1576111260,40.56,8.32,10.0,2.6
547,masumbwe,66.0,TZ,98.0,1576111260,-3.65,32.16,17.09,1.73
548,muroto,20.0,JP,66.0,1576111261,33.37,134.14,11.0,2.1
549,lowestoft,68.0,GB,85.0,1576111261,52.48,1.75,2.22,4.1
550,gotsu,40.0,JP,49.0,1576111261,35.01,132.22,9.0,6.7
552,miri,24.0,NG,16.0,1576111261,10.31,9.75,18.39,2.17
554,belgrade,40.0,RS,93.0,1576111127,44.82,20.46,3.0,1.0
555,rafai,83.0,CF,82.0,1576111261,4.95,23.92,21.57,1.52
557,beian,40.0,NO,48.0,1576111261,63.66,9.57,6.11,8.7
558,kloulklubed,75.0,PW,79.0,1576111261,7.04,134.26,29.0,5.1
559,shebalino,78.0,RU,78.0,1576111261,51.29,85.68,-7.45,2.1
560,lembeni,53.0,TZ,74.0,1576111261,-3.78,37.62,23.29,2.85
561,sola,2.0,TZ,90.0,1576111261,-3.17,33.8,17.96,1.22
562,talaya,90.0,RU,92.0,1576111261,55.79,84.89,-6.0,5.0
563,juli,0.0,CN,95.0,1576111261,25.21,100.58,2.07,1.43
564,krasnoarmeysk,90.0,RU,82.0,1576111261,56.12,38.15,2.78,4.0
565,litovko,18.0,RU,91.0,1576111261,49.24,135.18,-20.0,0.36
566,bonavista,100.0,CA,87.0,1576111261,48.65,-53.11,-2.22,4.02
567,shenjiamen,3.0,CN,58.0,1576111261,29.96,122.3,12.93,7.43
568,itaqui,0.0,BR,41.0,1576111261,-29.13,-56.55,26.46,2.52
570,vila do maio,77.0,CV,78.0,1576111262,15.13,-23.22,23.0,7.7
572,hailey,90.0,US,92.0,1576111262,43.52,-114.32,-1.0,1.85
573,qinzhou,18.0,CN,42.0,1576111262,21.96,108.62,13.05,1.18
574,petauke,92.0,ZM,91.0,1576111262,-14.25,31.33,20.54,0.44
575,ramsar,75.0,IR,87.0,1576111262,36.92,50.64,11.0,1.94
576,labuhan,86.0,ID,89.0,1576111262,-2.54,115.51,25.24,0.66
577,barranca,69.0,PE,89.0,1576111262,-10.75,-77.76,19.25,7.0
578,lakes entrance,1.0,AU,56.0,1576111262,-37.88,147.99,20.0,1.79
579,tura,93.0,RU,96.0,1576111263,64.27,100.22,-19.69,1.24
580,sungaipenuh,83.0,ID,96.0,1576111263,-2.08,101.38,17.07,1.39
581,limon,1.0,US,47.0,1576111263,39.26,-103.69,5.0,4.6
582,burns lake,100.0,CA,96.0,1576111263,54.23,-125.76,-4.51,1.67
583,vrangel,16.0,RU,69.0,1576111264,42.73,133.08,-5.28,17.26
585,tahe,41.0,CN,92.0,1576111264,52.34,124.71,-21.51,1.11
586,burley,90.0,US,80.0,1576111264,42.54,-113.79,4.0,1.5
587,khorinsk,100.0,RU,96.0,1576111264,52.16,109.78,-14.55,1.54
588,yangjiang,0.0,CN,43.0,1576111264,21.85,111.96,19.44,1.86
590,homer,90.0,US,65.0,1576111264,59.64,-151.54,9.0,5.7
591,chaihe,16.0,CN,77.0,1576111264,44.77,129.68,-13.71,5.48
592,inuvik,5.0,CA,69.0,1576111264,68.36,-133.71,-25.0,4.1
593,cap malheureux,40.0,MU,88.0,1576111264,-19.98,57.61,26.67,0.5
594,varenikovskaya,40.0,RU,78.0,1576111264,45.12,37.64,1.0,8.0
595,praya,75.0,ID,79.0,1576111264,-8.71,116.27,29.0,1.18
597,klichka,4.0,RU,94.0,1576111264,50.44,118.0,-22.35,1.4
598,los algarrobos,90.0,EC,83.0,1576111264,-3.25,-79.94,32.0,1.68
599,vinh,68.0,VN,86.0,1576111264,18.67,105.69,15.29,0.78
600,salym,100.0,RU,97.0,1576111264,60.06,71.48,-0.46,3.56
602,palembang,60.0,ID,93.0,1576111265,-2.99,104.76,23.94,1.82
603,avera,1.0,US,81.0,1576111265,33.19,-82.53,10.0,2.1
604,medvedok,58.0,RU,86.0,1576111265,57.39,50.04,-5.89,3.86
605,okhotsk,30.0,RU,65.0,1576111265,59.36,143.24,-26.95,4.87
606,lahaina,20.0,US,58.0,1576111265,20.87,-156.68,30.0,4.6
607,suda,100.0,RU,69.0,1576111265,59.15,37.56,-2.37,3.3
608,dzerzhinskoye,96.0,RU,89.0,1576111265,56.84,95.22,-6.69,3.12
609,smithers,90.0,CA,85.0,1576111194,54.78,-127.17,-5.0,2.1
610,magomeni,8.0,TZ,82.0,1576111265,-6.8,39.25,26.68,2.6
611,ulaanbaatar,0.0,MN,75.0,1576110943,47.92,106.92,-26.0,1.0
612,trujillo,100.0,VE,90.0,1576111196,9.37,-70.44,20.62,1.12
613,pandan,67.0,PH,79.0,1576111265,11.72,122.09,26.89,8.71
614,ust-kulom,100.0,RU,93.0,1576111265,61.69,53.69,-9.49,3.57
615,neiafu,40.0,TO,74.0,1576111265,-18.65,-173.98,29.0,5.1
